,Venue,Venue_Longitude,Venue_Latitude,Venue_Category
1,Lille Langebro,55.670966,12.579872,Bike Trail
2,Cykelsupersti C77,55.66113,12.516666,Bike Trail
3,Byskoven Cykelsti,55.63769,12.54768,Bike Trail
4,Cykeludfordringsbanen Lejren,55.68379338308456,12.433431573705779,Bike Trail
5,Det røde spor - Hareskov,55.76682177587971,12.432131000170385,Bike Trail
6,Vallensbæk Bikepark,55.627613,12.369144,Bike Trail
7,kongestien,55.785431726550044,12.467046263853137,Bike Trail
